     3.02           OBSERVATION DATA    G                   RINEX VERSION / TYPE
G = GPS  R = GLONASS  E = GALILEO  S = GEO  M = MIXED       COMMENT             
GNSS-SDR            robix               20190524 201446 UTC PGM / RUN BY / DATE 
GPS OBSERVATION DATA FILE GENERATED BY GNSS-SDR             COMMENT             
GNSS-SDR VERSION 0.0.10                                     COMMENT             
See https://gnss-sdr.org                                    COMMENT             
DEFAULT MARKER NAME                                         MARKER NAME         
robix               CTTC                                    OBSERVER / AGENCY   
GNSS-SDR            Software Receiver   0.0.10              REC # / TYPE / VERS 
Antenna number      Antenna type                            ANT # / TYPE        
        0.0000        0.0000        0.0000                  APPROX POSITION XYZ 
        0.0000        0.0000        0.0000                  ANTENNA: DELTA H/E/N
G    4 C1C L1C D1C S1C                                      SYS / # / OBS TYPES 
DBHZ                                                        SIGNAL STRENGTH UNIT
  2012    09    14    12    45   18.0800000     GPS         TIME OF FIRST OBS   
                                                            END OF HEADER       
> 2012 09 14 12 45 19.0000000  0  4                                             
G23  18033923.205 7     16035.811 7      -449.169 7        46.477               
G03  18914618.838 7    -28501.657 7       771.869 7        45.293               
G06  19845446.621 6     19214.843 6      -535.006 6        41.574               
G07  20611744.179 7    -68440.040 7      1855.902 7        42.126               
> 2012 09 14 12 45 20.0000000  0  4                                             
G23  18034005.528 7     16479.920 7      -439.935 7        46.246               
G03  18914475.582 7    -29258.311 7       768.349 7        43.865               
G06  19845548.421 7     19746.412 7      -544.013 7        44.339               
G07  20611395.232 7    -70292.461 7      1858.329 7        43.655               
> 2012 09 14 12 45 21.0000000  0  4                                             
G23  18034088.583 7     16924.640 7      -441.181 7        46.934               
G03  18914327.519 7    -30014.252 7       754.291 7        45.246               
G06  19845645.486 7     20278.616 7      -534.063 7        42.668               
G07  20611036.655 7    -72144.879 7      1864.238 7        43.227               
> 2012 09 14 12 45 22.0000000  0  4                                             
G23  18034176.946 7     17369.979 7      -454.600 7        44.686               
G03  18914178.170 7    -30769.552 7       753.144 7        46.095               
G06  19845749.090 6     20811.452 6      -521.104 6        41.374               
G07  20610688.602 6    -73997.215 6      1849.842 6        40.778               
> 2012 09 14 12 45 23.0000000  0  4                                             
G23  18034259.411 7     17815.920 7      -459.007 7        45.341               
G03  18914039.006 7    -31524.131 7       748.991 7        45.906               
G06  19845848.299 6     21344.945 6      -544.725 6        41.236               
G07  20610335.653 7    -75849.519 7      1851.185 7        44.227               
> 2012 09 14 12 45 24.0000000  0  4                                             
G23  18034345.540 7     18262.485 7      -442.693 7        46.278               
G03  18913896.018 7    -32278.090 7       758.701 7        43.241               
G06  19845953.262 7     21879.059 7      -547.531 7        42.078               
G07  20609986.403 7    -77701.874 7      1853.298 7        43.299               
> 2012 09 14 12 45 25.0000000  0  4                                             
G23  18034429.757 7     18709.655 7      -442.287 7        46.547               
G03  18913746.508 7    -33031.335 7       766.642 7        45.787               
G06  19846048.414 7     22413.798 7      -524.202 7        42.117               
G07  20609636.474 7    -79554.116 7      1857.899 7        42.989               
> 2012 09 14 12 45 26.0000000  0  4                                             
G23  18034517.011 7     19157.457 7      -453.789 7        47.267               
G03  18913599.481 7    -33783.886 7       755.991 7        43.513               
G06  19846152.787 7     22949.191 7      -536.311 7        43.614               
G07  20609281.756 7    -81406.376 7      1853.858 7        43.608               
> 2012 09 14 12 45 27.0000000  0  4                                             
G23  18034601.746 7     19605.858 7      -445.870 7        46.141               
G03  18913457.315 7    -34535.778 7       758.500 7        44.490               
G06  19846254.801 7     23485.193 7      -536.427 7        43.953               
G07  20608930.129 6    -83258.548 6      1847.298 6        41.102               
> 2012 09 14 12 45 28.0000000  0  4                                             
G23  18034687.946 7     20054.882 7      -440.303 7        46.160               
G03  18913316.829 7    -35286.975 7       752.865 7        45.070               
G06  19846352.849 7     24021.852 7      -522.528 7        43.233               
G07  20608571.694 7    -85110.700 7      1855.101 7        43.637               
> 2012 09 14 12 45 29.0000000  0  4                                             
G23  18034774.164 7     20504.520 7      -441.421 7        46.732               
G03  18913168.963 7    -36037.497 7       755.855 7        43.505               
G06  19846454.613 7     24559.118 7      -529.863 7        43.720               
G07  20608218.084 6    -86962.821 6      1855.129 6        40.177               
> 2012 09 14 12 45 30.0000000  0  4                                             
G23  18034861.883 7     20954.778 7      -444.561 7        44.640               
G03  18913028.780 7    -36787.334 7       739.023 7        45.603               
G06  19846557.592 7     25097.026 7      -531.879 7        42.260               
G07  20607871.390 6    -88814.906 6      1860.970 6        41.055               
> 2012 09 14 12 45 31.0000000  0  4                                             
G23  18034945.778 7     21405.656 7      -440.872 7        45.974               
G03  18912887.454 7    -37536.485 7       749.260 7        44.473               
G06  19846662.930 6     25635.563 6      -532.028 6        39.103               
G07  20607518.047 6    -90666.934 6      1857.737 6        41.816               
> 2012 09 14 12 45 32.0000000  0  4                                             
G23  18035031.710 7     21857.138 7      -465.900 7        46.585               
G03  18912740.392 7    -38284.990 7       749.564 7        45.337               
G06  19846762.210 7     26174.771 7      -529.662 7        42.290               
G07  20607162.043 6    -92518.991 6      1857.675 6        41.212               
> 2012 09 14 12 45 33.0000000  0  4                                             
G23  18035114.962 7     22309.228 7      -462.145 7        44.479               
G03  18912600.389 7    -39032.765 7       756.649 7        45.024               
G06  19846862.580 6     26714.583 6      -544.993 6        41.245               
G07  20606811.435 7    -94370.955 7      1849.472 7        42.826               
> 2012 09 14 12 45 34.0000000  0  4                                             
G23  18035201.859 7     22761.957 7      -440.642 7        44.493               
G03  18912463.387 7    -39779.896 7       745.528 7        44.652               
G06  19846964.916 6     27255.031 6      -545.214 6        41.750               
G07  20606458.665 7    -96222.932 7      1869.216 7        44.694               
> 2012 09 14 12 45 35.0000000  0  4                                             
G23  18035285.701 7     23215.291 7      -442.491 7        44.685               
G03  18912320.309 7    -40526.330 7       746.485 7        46.288               
G06  19847070.629 6     27796.121 6      -539.132 6        40.616               
G07  20606104.912 7    -98074.845 7      1854.902 7        43.955               
> 2012 09 14 12 45 36.0000000  0  4                                             
G23  18035370.578 7     23669.252 7      -445.062 7        46.225               
G03  18912177.429 7    -41272.062 7       733.435 7        45.025               
G06  19847173.198 6     28337.834 6      -550.716 6        39.581               
G07  20605755.840 7    -99926.700 7      1826.236 7        43.198               
> 2012 09 14 12 45 37.0000000  0  4                                             
G23  18035460.585 7     24123.829 7      -454.293 7        45.028               
G03  18912036.496 7    -42017.163 7       758.767 7        46.101               
G06  19847271.978 6     28880.155 6      -557.952 6        40.281               
G07  20605405.196 6   -101778.568 6      1852.817 6        40.328               
