     2.11           OBSERVATION DATA    G                   RINEX VERSION / TYPE
BLANK OR G = GPS,  R = GLONASS,  E = GALILEO,  M = MIXED    COMMENT             
GNSS-SDR            robix               24-MAY-19 20:13     PGM / RUN BY / DATE 
GPS OBSERVATION DATA FILE GENERATED BY GNSS-SDR             COMMENT             
GNSS-SDR VERSION 0.0.10                                     COMMENT             
See https://gnss-sdr.org                                    COMMENT             
DEFAULT MARKER NAME                                         MARKER NAME         
robix               CTTC                                    OBSERVER / AGENCY   
GNSS-SDR            Software Receiver   0.0.10              REC # / TYPE / VERS 
Antenna number      Antenna type                            ANT # / TYPE        
        0.0000        0.0000        0.0000                  APPROX POSITION XYZ 
        0.0000        0.0000        0.0000                  ANTENNA: DELTA H/E/N
     1     1                                                WAVELENGTH FACT L1/2
     4    C1    L1    D1    S1                              # / TYPES OF OBSERV 
  2013    04    04    06    24   18.0800000     GPS         TIME OF FIRST OBS   
                                                            END OF HEADER       
 13  4  4 06 24 19.0000000  0  5G01G11G20G32G17                                 
  18511418.505 7   -392016.950 7      7055.586 7        45.831                  
  19755175.140 7   -301586.836 7      5427.943 7        44.699                  
  17993083.536 7   -459071.709 7      8301.671 7        44.257                  
  19095512.604 7   -351314.419 7      6411.519 7        44.981                  
  20010888.311 7   -549214.823 7      9900.984 7        44.000                  
 13  4  4 06 24 20.0000000  0  5G01G11G20G32G17                                 
  18510078.578 7   -399064.343 7      7053.561 7        46.277                  
  19754135.128 7   -307031.346 7      5462.507 7        43.336                  
  17991505.093 7   -467383.481 7      8317.237 7        42.362                  
  19094290.774 7   -357731.754 7      6417.595 7        45.819                  
  20009007.578 7   -559129.934 7      9917.514 7        44.446                  
 13  4  4 06 24 21.0000000  0  5G01G11G20G32G17                                 
  18508733.988 8   -406116.960 8      7054.364 8        48.930                  
  19753100.243 7   -312481.153 7      5449.886 7        43.632                  
  17989925.633 7   -475700.531 7      8311.671 7        43.903                  
  19093070.498 7   -364154.488 7      6418.647 7        44.931                  
  20007119.001 7   -569050.145 7      9915.373 7        44.838                  
 13  4  4 06 24 22.0000000  0  5G01G11G20G32G17                                 
  18507392.221 7   -413174.596 7      7063.826 7        46.895                  
  19752064.983 7   -317936.071 7      5448.074 7        46.434                  
  17988337.755 7   -484022.653 7      8330.129 7        43.622                  
  19091851.563 7   -370582.459 7      6439.662 7        44.945                  
  20005224.920 7   -578975.195 7      9922.946 7        43.622                  
 13  4  4 06 24 23.0000000  0  5G01G11G20G32G17                                 
  18506048.649 7   -420237.655 7      7075.064 7        47.928                  
  19751024.935 7   -323396.558 7      5480.277 7        45.673                  
  17986754.488 7   -492350.253 7      8347.109 7        42.869                  
  19090625.497 7   -377016.018 7      6437.159 7        44.617                  
  20003332.626 7   -588905.572 7      9945.467 7        43.373                  
 13  4  4 06 24 24.0000000  0  5G01G11G20G32G17                                 
  18504699.716 7   -427306.765 7      7067.302 7        47.161                  
  19749980.848 7   -328863.125 7      5470.278 7        46.098                  
  17985167.451 7   -500683.928 7      8324.207 7        42.181                  
  19089399.057 7   -383455.817 7      6437.065 7        42.736                  
  20001447.802 7   -598841.797 7      9942.893 7        44.751                  
 13  4  4 06 24 25.0000000  0  5G01G11G20G32G17                                 
  18503355.483 7   -434382.569 7      7078.121 7        47.704                  
  19748938.673 7   -334336.512 7      5492.946 7        43.828                  
  17983578.841 7   -509024.367 7      8365.302 7        43.183                  
  19088175.529 7   -389902.492 7      6450.299 7        46.188                  
  19999552.899 7   -608784.597 7      9946.649 7        43.406                  
 13  4  4 06 24 26.0000000  0  5G01G11G20G32G17                                 
  18502005.729 7   -441464.855 7      7084.998 7        47.365                  
  19747898.320 7   -339816.432 7      5477.869 7        47.962                  
  17981987.087 7   -517371.324 7      8369.008 7        44.632                  
  19086945.658 7   -396355.811 7      6450.620 7        45.004                  
  19997659.980 7   -618733.696 7      9941.444 7        45.733                  
 13  4  4 06 24 27.0000000  0  5G01G11G20G32G17                                 
  18500657.279 7   -448553.416 7      7082.567 7        46.066                  
  19746851.910 7   -345302.757 7      5489.874 7        44.768                  
  17980398.817 6   -525724.600 6      8345.585 6        41.394                  
  19085715.286 7   -402815.606 7      6456.626 7        45.206                  
  19995768.580 7   -628688.964 7      9966.845 7        44.952                  
 13  4  4 06 24 28.0000000  0  5G01G11G20G32G17                                 
  18499308.203 7   -455646.803 7      7092.961 7        47.194                  
  19745808.413 7   -350793.917 7      5495.924 7        45.163                  
  17978809.099 7   -534082.730 7      8372.345 7        43.247                  
  19084483.074 7   -409280.371 7      6462.365 7        46.062                  
  19993869.103 7   -638648.844 7      9965.069 7        43.672                  
 13  4  4 06 24 29.0000000  0  5G01G11G20G32G17                                 
  18497954.625 8   -462746.355 8      7102.961 8        48.526                  
  19744761.092 7   -356291.414 7      5514.334 7        45.284                  
  17977220.042 6   -542447.127 6      8378.497 6        41.667                  
  19083253.811 7   -415751.530 7      6474.431 7        43.142                  
  19991977.452 7   -648614.784 7      9964.624 7        43.654                  
 13  4  4 06 24 30.0000000  0  5G01G11G20G32G17                                 
  18496605.031 8   -469851.129 8      7103.466 8        48.482                  
  19743716.665 7   -361794.200 7      5514.573 7        42.879                  
  17975629.592 7   -550816.775 7      8372.164 7        43.609                  
  19082022.242 6   -422228.108 6      6486.534 6        41.856                  
  19990075.652 7   -658585.800 7      9972.168 7        45.284                  
 13  4  4 06 24 31.0000000  0  5G01G11G20G32G17                                 
  18495249.058 7   -476960.348 7      7107.298 7        45.340                  
  19742670.327 7   -367301.519 7      5500.829 7        46.081                  
  17974032.084 7   -559190.915 7      8375.145 7        44.294                  
  19080789.923 7   -428709.285 7      6491.331 7        44.397                  
  19988183.340 7   -668561.075 7      9975.000 7        45.118                  
 13  4  4 06 24 32.0000000  0  5G01G11G20G32G17                                 
  18493894.550 7   -484074.612 7      7112.958 7        47.418                  
  19741615.179 7   -372813.987 7      5513.072 7        43.451                  
  17972438.524 7   -567570.153 7      8382.581 7        43.414                  
  19079553.136 7   -435195.706 7      6493.250 7        45.406                  
  19986280.933 7   -678541.284 7      9977.729 7        44.690                  
 13  4  4 06 24 33.0000000  0  5G01G11G20G32G17                                 
  18492542.330 7   -491195.568 7      7117.350 7        46.435                  
  19740567.464 7   -378333.193 7      5521.212 7        43.391                  
  17970842.052 7   -575956.137 7      8397.426 7        42.247                  
  19078316.439 7   -441688.957 7      6484.250 7        47.296                  
  19984370.109 7   -688528.016 7      9976.621 7        44.290                  
 13  4  4 06 24 34.0000000  0  5G01G11G20G32G17                                 
  18491186.911 7   -498319.807 7      7130.131 7        46.242                  
  19739517.874 7   -383855.849 7      5537.144 7        43.249                  
  17969250.905 7   -584345.422 7      8384.198 7        42.919                  
  19077079.545 7   -448185.725 7      6501.403 7        46.169                  
  19982476.260 7   -698517.928 7      9996.571 7        43.886                  
 13  4  4 06 24 35.0000000  0  5G01G11G20G32G17                                 
  18489829.133 7   -505449.957 7      7135.504 7        46.470                  
  19738466.157 7   -389384.462 7      5538.883 7        46.896                  
  17967655.559 6   -592740.682 6      8381.244 6        41.658                  
  19075842.312 7   -454688.588 7      6510.601 7        45.297                  
  19980588.630 7   -708513.558 7      9995.183 7        47.117                  
 13  4  4 06 24 36.0000000  0  5G01G11G20G32G17                                 
  18488470.176 7   -512585.095 7      7140.082 7        46.484                  
  19737416.798 7   -394918.184 7      5548.177 7        44.452                  
  17966052.600 6   -601141.001 6      8385.715 6        40.349                  
  19074603.971 7   -461196.626 7      6513.587 7        46.157                  
  19978665.959 7   -718514.035 7      9998.201 7        44.011                  
 13  4  4 06 24 37.0000000  0  5G01G11G20G32G17                                 
  18487116.776 7   -519726.087 7      7152.997 7        46.411                  
  19736354.163 7   -400457.829 7      5534.723 7        46.666                  
  17964454.966 6   -609547.235 6      8398.915 6        41.627                  
  19073368.328 7   -467710.688 7      6517.308 7        43.302                  
  19976772.361 7   -728520.193 7     10008.733 7        43.881                  
 13  4  4 06 24 38.0000000  0  5G01G11G20G32G17                                 
  18485755.300 8   -526872.692 8      7152.336 8        48.876                  
  19735302.357 7   -406003.160 7      5548.281 7        43.889                  
  17962853.008 7   -617959.098 7      8413.557 7        42.015                  
  19072124.268 7   -474230.551 7      6527.728 7        44.546                  
  19974859.553 7   -738531.862 7     10017.903 7        44.448                  
 13  4  4 06 24 39.0000000  0  5G01G11G20G32G17                                 
  18484398.558 7   -534023.063 7      7149.342 7        47.457                  
  19734242.402 7   -411552.389 7      5549.955 7        43.856                  
  17961252.480 6   -626374.792 6      8424.393 6        41.531                  
  19070883.372 7   -480754.366 7      6528.095 7        44.030                  
  19972960.934 7   -748547.092 7     10016.595 7        44.204                  
 13  4  4 06 24 40.0000000  0  5G01G11G20G32G17                                 
  18483035.366 7   -541178.041 7      7154.111 7        47.397                  
  19733190.631 7   -417106.300 7      5555.942 7        42.936                  
  17959644.715 7   -634795.129 7      8437.288 7        44.513                  
  19069641.439 7   -487282.950 7      6523.820 7        44.372                  
  19971054.470 7   -758566.791 7     10017.525 7        44.246                  
 13  4  4 06 24 41.0000000  0  5G01G11G20G32G17                                 
  18481670.673 8   -548339.862 8      7162.048 8        48.116                  
  19732132.017 7   -422667.150 7      5557.338 7        44.512                  
  17958046.545 6   -643222.367 6      8438.646 6        41.958                  
  19068397.559 7   -493818.597 7      6544.061 7        42.920                  
  19969143.217 7   -768593.193 7     10039.055 7        42.894                  
 13  4  4 06 24 42.0000000  0  5G01G11G20G32G17                                 
  18480307.088 8   -555505.703 8      7163.701 8        48.897                  
  19731070.793 7   -428232.121 7      5570.688 7        43.097                  
  17956438.923 6   -651653.651 6      8431.225 6        40.954                  
  19067149.175 7   -500358.411 7      6543.846 7        43.559                  
  19967231.196 7   -778623.436 7     10032.916 7        43.375                  
 13  4  4 06 24 43.0000000  0  5G01G11G20G32G17                                 
  18478944.825 7   -562680.347 7      7173.092 7        45.191                  
  19730011.357 7   -433805.996 7      5577.666 7        43.904                  
  17954835.660 7   -660093.827 7      8435.711 7        43.119                  
  19065906.295 7   -506907.241 7      6556.191 7        45.502                  
  19965325.107 7   -788662.402 7     10046.110 7        44.579                  
 13  4  4 06 24 44.0000000  0  5G01G11G20G32G17                                 
  18477573.485 7   -569857.741 7      7184.655 7        46.304                  
  19728950.670 7   -439382.676 7      5581.540 7        43.551                  
  17953228.181 6   -668536.768 6      8434.010 6        41.947                  
  19064658.591 7   -513458.981 7      6550.483 7        43.936                  
  19963413.908 7   -798703.897 7     10037.194 7        42.627                  
 13  4  4 06 24 45.0000000  0  5G01G11G20G32G17                                 
  18476207.488 8   -577039.165 8      7186.512 8        48.049                  
  19727885.783 7   -444963.524 7      5588.025 7        45.658                  
  17951620.237 6   -676983.859 6      8454.634 6        39.162                  
  19063411.583 7   -520014.963 7      6562.703 7        44.919                  
  19961496.848 7   -808749.343 7     10041.293 7        44.065                  
 13  4  4 06 24 46.0000000  0  5G01G11G20G32G17                                 
  18474842.723 7   -584228.275 7      7191.419 7        46.622                  
  19726824.024 7   -450552.125 7      5592.436 7        42.921                  
  17950009.398 7   -685438.621 7      8447.762 7        42.557                  
  19062164.700 7   -526578.814 7      6559.046 7        44.935                  
  19959589.562 7   -818802.257 7     10050.973 7        42.926                  
 13  4  4 06 24 47.0000000  0  5G01G11G20G32G17                                 
  18473471.919 7   -591419.902 7      7191.039 7        47.427                  
  19725761.228 7   -456143.335 7      5604.612 7        45.823                  
  17948397.219 7   -693895.969 7      8464.757 7        42.665                  
  19060914.995 7   -533145.348 7      6567.252 7        43.666                  
  19957677.451 7   -828857.555 7     10061.905 7        45.004                  
 13  4  4 06 24 48.0000000  0  5G01G11G20G32G17                                 
  18472103.366 7   -598619.173 7      7201.524 7        47.489                  
  19724696.645 7   -461742.290 7      5598.357 7        43.499                  
  17946787.792 7   -702361.015 7      8483.499 7        42.004                  
  19059660.911 7   -539719.723 7      6572.063 7        44.729                  
  19955758.676 7   -838920.343 7     10059.709 7        43.412                  
 13  4  4 06 24 49.0000000  0  5G01G11G20G32G17                                 
  18470734.224 8   -605822.942 8      7206.357 8        48.255                  
  19723629.418 7   -467345.839 7      5624.473 7        44.490                  
  17945174.719 6   -710830.576 6      8450.335 6        41.182                  
  19058413.653 7   -546298.763 7      6592.696 7        46.523                  
  19953845.404 7   -848987.481 7     10068.344 7        42.929                  
 13  4  4 06 24 50.0000000  0  5G01G11G20G32G17                                 
  18469358.488 7   -613032.339 7      7213.871 7        46.768                  
  19722563.727 7   -472955.082 7      5616.397 7        43.402                  
  17943563.916 7   -719305.857 7      8474.972 7        43.291                  
  19057157.407 6   -552883.646 6      6584.413 6        41.660                  
  19951928.201 7   -859060.086 7     10084.862 7        44.641                  
 13  4  4 06 24 51.0000000  0  5G01G11G20G32G17                                 
  18467987.380 7   -620246.260 7      7216.020 7        45.822                  
  19721494.319 7   -478568.963 7      5613.119 7        45.814                  
  17941949.986 7   -727785.671 7      8502.118 7        42.831                  
  19055899.821 7   -559473.205 7      6588.245 7        44.094                  
  19950005.404 7   -869137.067 7     10088.321 7        42.051                  
 13  4  4 06 24 52.0000000  0  5G01G11G20G32G17                                 
  18466612.751 7   -627464.382 7      7224.979 7        46.011                  
  19720424.662 7   -484187.149 7      5630.422 7        46.322                  
  17940337.092 7   -736269.765 7      8492.043 7        42.702                  
  19054648.560 7   -566067.173 7      6594.400 7        47.707                  
  19948088.487 7   -879218.110 7     10095.674 7        43.958                  
 13  4  4 06 24 53.0000000  0  5G01G11G20G32G17                                 
  18465240.875 7   -634689.617 7      7228.853 7        47.576                  
  19719359.382 7   -489812.517 7      5630.107 7        45.934                  
  17938721.375 7   -744761.015 7      8494.413 7        42.376                  
  19053390.957 6   -572668.453 6      6607.346 6        41.590                  
  19946171.177 7   -889306.096 7     10101.057 7        44.713                  
 13  4  4 06 24 54.0000000  0  5G01G11G20G32G17                                 
  18463864.603 7   -641915.631 7      7228.349 7        46.314                  
  19718286.008 7   -495438.773 7      5630.884 7        43.099                  
  17937105.212 7   -753253.102 7      8498.752 7        42.828                  
  19052136.265 7   -579270.677 7      6606.046 7        43.652                  
  19944252.312 7   -899394.721 7     10094.990 7        44.302                  
 13  4  4 06 24 55.0000000  0  5G01G11G20G32G17                                 
  18462486.151 7   -649148.161 7      7238.550 7        47.322                  
  19717213.384 7   -501071.639 7      5641.860 7        45.452                  
  17935491.746 6   -761751.735 6      8477.794 6        40.723                  
  19050881.770 7   -585879.596 7      6618.825 7        45.083                  
  19942331.570 7   -909489.705 7     10097.862 7        42.998                  
 13  4  4 06 24 56.0000000  0  5G01G11G20G32G17                                 
  18461109.611 7   -656384.824 7      7239.132 7        45.571                  
  19716138.294 7   -506708.726 7      5638.669 7        43.090                  
  17933869.811 7   -770254.585 7      8520.229 7        43.019                  
  19049623.487 7   -592492.867 7      6613.414 7        42.634                  
  19940409.596 7   -919588.693 7     10091.803 7        44.171                  
 13  4  4 06 24 57.0000000  0  5G01G11G20G32G17                                 
  18459729.729 7   -663625.714 7      7249.134 7        45.182                  
  19715064.116 7   -512350.139 7      5647.366 7        43.380                  
  17932250.752 7   -778761.668 7      8500.852 7        42.053                  
  19048367.706 7   -599110.516 7      6624.656 7        44.120                  
  19938488.622 7   -929691.732 7     10111.602 7        45.559                  
 13  4  4 06 24 58.0000000  0  5G01G11G20G32G17                                 
  18458354.189 7   -670872.082 7      7251.706 7        45.507                  
  19713992.242 7   -517997.113 7      5640.332 7        46.341                  
  17930630.335 6   -787274.309 6      8517.149 6        41.085                  
  19047102.687 7   -605733.829 7      6632.684 7        45.276                  
  19936567.345 6   -939800.101 6     10109.259 6        40.860                  
 13  4  4 06 24 59.0000000  0  5G01G11G20G32G17                                 
  18456974.361 8   -678124.632 8      7260.313 8        48.335                  
  19712917.367 7   -523650.374 7      5657.890 7        45.935                  
  17929012.313 6   -795793.182 6      8511.696 6        40.641                  
  19045839.311 7   -612363.517 7      6620.610 7        44.338                  
  19934645.210 7   -949914.512 7     10116.481 7        44.646                  
 13  4  4 06 25  0.0000000  0  5G01G11G20G32G17                                 
  18455591.567 8   -685381.282 8      7263.697 8        48.072                  
  19711844.868 7   -529307.806 7      5657.882 7        45.625                  
  17927388.966 6   -804316.198 6      8530.581 6        39.539                  
  19044576.167 7   -618997.489 7      6628.260 7        43.618                  
  19932712.193 7   -960032.844 7     10127.434 7        43.532                  
 13  4  4 06 25  1.0000000  0  5G01G11G20G32G17                                 
  18454209.380 7   -692641.773 7      7261.864 7        45.717                  
  19710765.901 7   -534969.216 7      5666.242 7        43.261                  
  17925767.870 7   -812843.120 7      8543.347 7        45.082                  
  19043314.632 7   -625635.467 7      6642.306 7        44.376                  
  19930784.768 7   -970154.888 7     10132.764 7        44.798                  
 13  4  4 06 25  2.0000000  0  5G01G11G20G32G17                                 
  18452832.000 7   -699906.471 7      7254.402 7        45.793                  
  19709684.807 7   -540634.924 7      5670.572 7        44.250                  
  17924145.453 7   -821374.267 7      8515.516 7        42.244                  
  19042052.257 7   -632277.886 7      6647.531 7        47.061                  
  19928853.556 7   -980280.993 7     10128.339 7        47.111                  
